
[
    {
        "id": 1,
        "name": "Second Floor 貳樓公館店",
        "cuisine": "美式",
        "latitude": 25.0152,
        "longitude": 121.5348,
        "priceRange": 3,
        "rating": 4.5,
        "googleMapsUrl": "https://maps.app.goo.gl/g6gV7iE3P4B1mQ4Z6"
    },
    {
        "id": 2,
        "name": "金雞園",
        "cuisine": "中式",
        "latitude": 25.0185,
        "longitude": 121.5312,
        "priceRange": 1,
        "rating": 4.1,
        "googleMapsUrl": "https://maps.app.goo.gl/7g6U2vT1Q9y3R8oR8"
    },
    {
        "id": 3,
        "name": "池先生公館店",
        "cuisine": "南洋料理",
        "latitude": 25.0142,
        "longitude": 121.5342,
        "priceRange": 2,
        "rating": 4.4,
        "googleMapsUrl": "https://maps.app.goo.gl/uXpXgqP4h2N2vF7Y7"
    },
    {
        "id": 4,
        "name": "靜壽司",
        "cuisine": "日式",
        "latitude": 25.0181,
        "longitude": 121.5358,
        "priceRange": 2,
        "rating": 4.6,
        "googleMapsUrl": "https://maps.app.goo.gl/vQ1eJ9xK9R3z3pD78"
    },
    {
        "id": 5,
        "name": "墨洋拉麵",
        "cuisine": "日式",
        "latitude": 25.0163,
        "longitude": 121.5323,
        "priceRange": 3,
        "rating": 4.7,
        "googleMapsUrl": "https://maps.app.goo.gl/H4oM6J6K6b7N7P3Z9"
    },
    {
        "id": 6,
        "name": "藍家割包",
        "cuisine": "台式",
        "latitude": 25.0156,
        "longitude": 121.5332,
        "priceRange": 1,
        "rating": 4.3,
        "googleMapsUrl": "https://maps.app.goo.gl/fW2fB2jJ4R4mQ7hZ8"
    },
    {
        "id": 7,
        "name": "銀座越南美食",
        "cuisine": "越南料理",
        "latitude": 25.0159,
        "longitude": 121.5359,
        "priceRange": 2,
        "rating": 4.2,
        "googleMapsUrl": "https://maps.app.goo.gl/a8wZ8J8B5f6c6d7p8"
    },
    {
        "id": 8,
        "name": "山嵐拉麵 公館店",
        "cuisine": "日式",
        "latitude": 25.0150,
        "longitude": 121.5331,
        "priceRange": 2,
        "rating": 4.0,
        "googleMapsUrl": "https://maps.app.goo.gl/jR7k2H8wG8n8Q4Z2A"
    },
    {
        "id": 9,
        "name": "鱷吐司 A TOAST",
        "cuisine": "早午餐",
        "latitude": 25.0145,
        "longitude": 121.5328,
        "priceRange": 2,
        "rating": 4.5,
        "googleMapsUrl": "https://maps.app.goo.gl/f5k6X6oM3e8d6p8G6"
    },
    {
        "id": 10,
        "name": "すき家 Sukiya 台北公館店",
        "cuisine": "日式",
        "latitude": 25.0149,
        "longitude": 121.5345,
        "priceRange": 1,
        "rating": 4.1,
        "googleMapsUrl": "https://maps.app.goo.gl/kX7m7o5yY9z2A7F89"
    },
    {
        "id": 11,
        "name": "龍潭豆花",
        "cuisine": "甜點",
        "latitude": 25.0141,
        "longitude": 121.5336,
        "priceRange": 1,
        "rating": 4.4,
        "googleMapsUrl": "https://maps.app.goo.gl/fJFJXWdfdffciE7YA"
    },
    {
        "id": 12,
        "name": "大學口糯米腸",
        "cuisine": "台式",
        "latitude": 25.0177,
        "longitude": 121.5351,
        "priceRange": 1,
        "rating": 4.8,
        "googleMapsUrl": "https://maps.app.goo.gl/nJ7b6G2F3k8H5e9y6"
    },
    {
        "id": 13,
        "name": "哥德德式創意美食",
        "cuisine": "德式",
        "latitude": 25.0180,
        "longitude": 121.5370,
        "priceRange": 3,
        "rating": 4.6,
        "googleMapsUrl": "https://maps.app.goo.gl/wK4b3G5F6x8z7A9b9"
    },
    {
        "id": 14,
        "name": "阿英滷肉飯",
        "cuisine": "台式",
        "latitude": 25.0191,
        "longitude": 121.5321,
        "priceRange": 1,
        "rating": 4.0,
        "googleMapsUrl": "https://maps.app.goo.gl/uXpXgqP4h2N2vF7Y7"
    },
    {
        "id": 15,
        "name": "找到咖啡",
        "cuisine": "咖啡廳",
        "latitude": 25.0195,
        "longitude": 121.5355,
        "priceRange": 2,
        "rating": 4.2,
        "googleMapsUrl": "https://maps.app.goo.gl/aZ9k8X8G6d7r5c6p7"
    }
]
